{
    "members": [
        {
            "name": "Dr. Ivan Leffalle Dental Practice",
            "address": "Obligado St. 721, Chaco, Argentina",
            "phone": "(+54) 9 1234 5678",
            "website": "https://ivanleffalle.github.io/wdd231/index.html",
            "image": "./images/familydental.webp",
            "membership": 1,
            "specialties": "General Dentistry, Cosmetic Dentistry",
            "hours": "Mon-Fri 9am-5pm"
        },
        {
            "name": "Bright Smiles Dental Clinic",
            "address": "1234 Main St, Los Angeles, CA, USA",
            "phone": "(+1) 310-555-1234",
            "website": "https://brightsmiles.com",
            "image": "./images/BrightSmile.webp",
            "membership": 3,
            "specialties": "Pediatric Dentistry, Orthodontics",
            "hours": "Mon-Fri 8am-6pm, Sat 9am-1pm"
        },
        {
            "name": "Downtown Dental Care",
            "address": "456 Central Ave, New York, NY, USA",
            "phone": "(+1) 212-555-4567",
            "website": "https://downtowndentalcare.com",
            "image": "./images/downtown.webp",
            "membership": 2,
            "specialties": "Family Dentistry, Preventive Care",
            "hours": "Mon-Fri 9am-5pm, Closed Sat-Sun"
        },
        {
            "name": "Oceanview Dental Group",
            "address": "789 Beach Rd, Miami, FL, USA",
            "phone": "(+1) 305-555-7890",
            "website": "https://oceanviewdental.com",
            "image": "images/oceanview.webp",
            "membership": 3,
            "specialties": "Implants, Oral Surgery",
            "hours": "Mon-Fri 8am-6pm, Sat 8am-2pm"
        },
        {
            "name": "Healthy Smiles Family Dentistry",
            "address": "321 Elm St, Austin, TX, USA",
            "phone": "(+1) 512-555-3210",
            "website": "https://healthysmiles.com",
            "image": "images/healthy.webp",
            "membership": 1,
            "specialties": "Preventive Care, Cosmetic Dentistry",
            "hours": "Mon-Fri 8am-5pm"
        },
        {
            "name": "Elite Dental Specialists",
            "address": "101 Luxury Dr, Beverly Hills, CA, USA",
            "phone": "(+1) 424-555-1010",
            "website": "https://elitedentalspecialists.com",
            "image": "images/edscare.webp",
            "membership": 3,
            "specialties": "Orthodontics, Cosmetic Dentistry, Veneers",
            "hours": "Mon-Fri 9am-6pm, Sat 10am-3pm"
        },
        {
            "name": "City Center Dental",
            "address": "777 Park Ave, Chicago, IL, USA",
            "phone": "(+1) 312-555-7777",
            "website": "https://citycenterdental.com",
            "image": "images/CityCenter.webp",
            "membership": 2,
            "specialties": "Emergency Dental Care, Endodontics",
            "hours": "24/7"
        }
    ]
}